[
    {
        "city": "Earth",
        "latitude": "0",
        "longitude": "0",
        "employees": "243454",
        "image": "5.jpeg",
        "locationAnchor": "Anchor1"
    },
    {
        "city": "India",
        "latitude": "20.593683",
        "longitude": "78.962883",
        "employees": "12345",
        "image": "1.jpeg",
        "locationAnchor": "Anchor2"
    },
    {
        "city": "Canada",
        "latitude": "55.585901",
        "longitude": "-105.750596",
        "employees": "12345",
        "image": "2.jpeg",
        "locationAnchor": "Anchor3"
    },
    {
        "city": "Australia",
        "latitude": "-25.734968",
        "longitude": "134.489563",
        "employees": "12345",
        "image": "3.jpeg",
        "locationAnchor": "Anchor4"
    },
    {
        "city": "Rajasthan",
        "latitude": "27.0238",
        "longitude": "74.2179",
        "employees": "75",
        "image": "4.jpeg",
        "locationAnchor": "Anchor5"
    },
    {
        "city": "Karnataka",
        "latitude": "15.3173",
        "longitude": "75.7139",
        "employees": "17",
        "image": "5.jpeg",
        "locationAnchor": "Anchor6"
    },
    {
        "city": "Uttar Pradesh",
        "latitude": "26.8467",
        "longitude": "80.9462",
        "employees": "30",
        "image": "6.jpeg",
        "locationAnchor": "Anchor7"
    },
    {
        "city": "Punjab",
        "latitude": "31.147129",
        "longitude": "75.341217",
        "employees": "25",
        "image": "7.jpeg",
        "locationAnchor": "Anchor8"
    },
    {
        "city": "Chandigarh",
        "latitude": "30.733315",
        "longitude": "76.779419",
        "employees": "50",
        "image": "8.jpeg",
        "locationAnchor": "Anchor9"
    },
    {
        "city": "USA",
        "latitude": "37.090240",
        "longitude": "-95.712891",
        "employees": "10000",
        "image": "5.jpeg",
        "locationAnchor": "Anchor10"
    },
    {
        "city": "Hargeisa",
        "latitude": "9.562389",
        "longitude": "44.077011",
        "employees": "250",
        "image": "1.jpeg",
        "locationAnchor": "Anchor11"
    },
    {
        "city": "New York",
        "latitude": "40.7128",
        "longitude": "-74.0060",
        "employees": "250",
        "image": "2.jpeg",
        "locationAnchor": "Anchor12"
    }
]